[
  {
    "hotel_id": 1,
    "name": "Mountain View Lonavala",
    "description": "A beautiful hotel at the edge of the Lonavala peak, offering breathtaking views of the Sahyadri mountains. Perfect for a peaceful getaway.",
    "address": "Lions Point Road, Near Tiger Point, Lonavala",
    "latitude": 18.7500,
    "longitude": 73.4167,
    "city": "Lonavala",
    "state": "Maharashtra",
    "country": "India",
    "contact_phone": "+91-2114-256789",
    "contact_email": "reservations@mountainviewlonavala.com"
  },
  {
    "hotel_id": 1,
    "name": "Sunset Beach Resort Goa",
    "description": "Luxurious beachfront resort with direct access to pristine white sand beaches. Experience the perfect blend of relaxation and adventure.",
    "address": "Baga Beach Road, Calangute, North Goa",
    "latitude": 15.5517,
    "longitude": 73.7554,
    "city": "Calangute",
    "state": "Goa",
    "country": "India",
    "contact_phone": "+91-832-2274567",
    "contact_email": "info@sunsetbeachgoa.com"
  },
  {
    "hotel_id": 2,
    "name": "Heritage Palace Udaipur",
    "description": "A majestic heritage property overlooking Lake Pichola. Experience royal hospitality in this beautifully restored palace hotel.",
    "address": "Lake Palace Road, City Palace Complex, Udaipur",
    "latitude": 24.5713,
    "longitude": 73.6842,
    "city": "Udaipur",
    "state": "Rajasthan",
    "country": "India",
    "contact_phone": "+91-294-2521234",
    "contact_email": "bookings@heritagepalaceudaipur.com"
  },
  {
    "hotel_id": 2,
    "name": "Golden Temple View Amritsar",
    "description": "Centrally located hotel with stunning views of the Golden Temple. Experience the spiritual heart of Punjab.",
    "address": "Hall Bazaar, Near Golden Temple, Amritsar",
    "latitude": 31.6200,
    "longitude": 74.8765,
    "city": "Amritsar",
    "state": "Punjab",
    "country": "India",
    "contact_phone": "+91-183-2567890",
    "contact_email": "stay@goldentempleview.com"
  },
  {
    "hotel_id": 3,
    "name": "Hill Station Retreat Manali",
    "description": "Cozy mountain retreat nestled in the Himalayas. Perfect for adventure enthusiasts and nature lovers.",
    "address": "Old Manali Road, Near Hadimba Temple, Manali",
    "latitude": 32.2432,
    "longitude": 77.1892,
    "city": "Manali",
    "state": "Himachal Pradesh",
    "country": "India",
    "contact_phone": "+91-1902-245678",
    "contact_email": "reservations@hillstationmanali.com"
  },
  {
    "hotel_id": 3,
    "name": "Backwaters Resort Alleppey",
    "description": "Tranquil resort on the banks of Kerala's famous backwaters. Experience authentic Kerala culture and cuisine.",
    "address": "Vembanad Lake Road, Alleppey",
    "latitude": 9.4981,
    "longitude": 76.3388,
    "city": "Alleppey",
    "state": "Kerala",
    "country": "India",
    "contact_phone": "+91-477-2234567",
    "contact_email": "info@backwatersresort.com"
  },
  {
    "hotel_id": 4,
    "name": "Desert Camp Jaisalmer",
    "description": "Authentic desert camping experience with luxury amenities. Enjoy camel safaris and traditional Rajasthani entertainment.",
    "address": "Sam Sand Dunes, Jaisalmer",
    "latitude": 26.9157,
    "longitude": 70.9083,
    "city": "Jaisalmer",
    "state": "Rajasthan",
    "country": "India",
    "contact_phone": "+91-2992-256789",
    "contact_email": "bookings@desertcampjaisalmer.com"
  },
  {
    "hotel_id": 5,
    "name": "Beach Paradise Puri",
    "description": "Seaside hotel with panoramic views of the Bay of Bengal. Close to the famous Jagannath Temple.",
    "address": "Marine Drive, Puri Beach, Puri",
    "latitude": 19.8133,
    "longitude": 85.8315,
    "city": "Puri",
    "state": "Odisha",
    "country": "India",
    "contact_phone": "+91-6752-223456",
    "contact_email": "stay@beachparadisepuri.com"
  },
  {
    "hotel_id": 6,
    "name": "Tea Estate Stay Darjeeling",
    "description": "Charming colonial-style hotel surrounded by tea plantations. Wake up to stunning views of Mount Kanchenjunga.",
    "address": "Observatory Hill, Darjeeling",
    "latitude": 27.0360,
    "longitude": 88.2627,
    "city": "Darjeeling",
    "state": "West Bengal",
    "country": "India",
    "contact_phone": "+91-354-2256789",
    "contact_email": "reservations@teaestatedarjeeling.com"
  },
  {
    "hotel_id": 7,
    "name": "City Center Business Hotel Mumbai",
    "description": "Modern business hotel in the heart of Mumbai's financial district. Perfect for corporate travelers.",
    "address": "Nariman Point, Mumbai",
    "latitude": 18.9290,
    "longitude": 72.8280,
    "city": "Mumbai",
    "state": "Maharashtra",
    "country": "India",
    "contact_phone": "+91-22-22001234",
    "contact_email": "bookings@citycentermumbai.com"
  }
]
